{
  "contents": [
    {
      "title": "고내본향",
      "place": "애월읍 고내리 본향당",
      "lat": "33.466851",
      "long": "126.337404"
    },
    {
      "title": "고성신양수산본향당본풀이",
      "place": "성산읍 수산리 본향당",
      "lat": "33.451435",
      "long": "126.893156"
    },
    {
      "title": "곤물당본풀이",
      "place": "안덕면 화순리 곤물당",
      "lat": "33.253342",
      "long": "126.332773"
    },
    {
      "title": "궤눼깃당본풀이",
      "place": "구좌읍 김녕리 궤네깃당",
      "lat": "33.552118",
      "long": "126.749375"
    },
    {
      "title": "금악본향 오일당",
      "place": "한림읍 금악리 오일당",
      "lat": "33.348484",
      "long": "126.296788"
    },
    {
      "title": "널갯당 오일본향",
      "place": "한경면 판포리 본향당",
      "lat": "33.358027",
      "long": "126.206105"
    },
    {
      "title": "눈미 불돗당본풀이",
      "place": "조천읍 와산리 불돗당",
      "lat": "33.480500",
      "long": "126.687602"
    },
    {
      "title": "당나미문씨아기당본풀이",
      "place": "표선면 가시리 당나미문씨아기당",
      "lat": "33.373823",
      "long": "126.752664"
    }
  ]
}