{
    "contents":[
        {
            "title": "고내본향",
            "lat": "33.466851",
            "long": "126.337404",
            "place": "애월읍 고내리 본향당"
          },
          {
            "title": "곤물당본풀이",
            "lat": "33.253342",
            "long": "126.332773",
            "place": "안덕면 화순리 곤물당"
          },
          {
            "title": "궤눼깃당본풀이",
            "lat": "33.552118",
            "long": "126.749375",
            "place": "구좌읍 김녕리 궤네깃당"
          },
          {
            "title": "눈미 불돗당본풀이",
            "lat": "33.480500",
            "long": "126.687602",
            "place": "조천읍 와산리 불돗당"
          },
          {
            "title": "당나미문씨아기당본풀이",
            "lat": "33.373823",
            "long": "126.752664",
            "place": "표선면 가시리 당나미문씨아기당"
          }
    ]
}

      
