{
  "contents": [
    {
      "title": "고내본향",
      "lat": "33.466851",
      "long": "126.337404"
    },
    {
      "title": "곤물당본풀이",
      "lat": "33.253342",
      "long": "126.332773"
    },
    {
      "title": "궤눼깃당본풀이",
      "lat": "33.552118",
      "long": "126.749375"
    },
    {
      "title": "눈미 불돗당본풀이",
      "lat": "33.480500",
      "long": "126.687602"
    },
    {
      "title": "당나미문씨아기당본풀이",
      "lat": "33.373823",
      "long": "126.752664"
    }
  ]
}